{
    "states": [
        {
            "id": 3901,
            "name": "Badakhshan",
            "country_id": 1,
            "country_code": "AF",
            "state_code": "BDS",
            "latitude": "36.73477250",
            "longitude": "70.81199530"
        },
        {
            "id": 3871,
            "name": "Badghis",
            "country_id": 1,
            "country_code": "AF",
            "state_code": "BDG",
            "latitude": "35.16713390",
            "longitude": "63.76953840"
        },
        {
            "id": 3875,
            "name": "Baghlan",
            "country_id": 1,
            "country_code": "AF",
            "state_code": "BGL",
            "latitude": "36.17890260",
            "longitude": "68.74530640"
        },
        {
            "id": 3884,
            "name": "Balkh",
            "country_id": 1,
            "country_code": "AF",
            "state_code": "BAL",
            "latitude": "36.75506030",
            "longitude": "66.89753720"
        },
        {
            "id": 3872,
            "name": "Bamyan",
            "country_id": 1,
            "country_code": "AF",
            "state_code": "BAM",
            "latitude": "34.81000670",
            "longitude": "67.82121040"
        },
        {
            "id": 3892,
            "name": "Daykundi",
            "country_id": 1,
            "country_code": "AF",
            "state_code": "DAY",
            "latitude": "33.66949500",
            "longitude": "66.04635340"
        },
        {
            "id": 3899,
            "name": "Farah",
            "country_id": 1,
            "country_code": "AF",
            "state_code": "FRA",
            "latitude": "32.49532800",
            "longitude": "62.26266270"
        },
        {
            "id": 3889,
            "name": "Faryab",
            "country_id": 1,
            "country_code": "AF",
            "state_code": "FYB",
            "latitude": "36.07956130",
            "longitude": "64.90595500"
        },
        {
            "id": 3870,
            "name": "Ghazni",
            "country_id": 1,
            "country_code": "AF",
            "state_code": "GHA",
            "latitude": "33.54505870",
            "longitude": "68.41739720"
        },
        {
            "id": 3888,
            "name": "Gh≈çr",
            "country_id": 1,
            "country_code": "AF",
            "state_code": "GHO",
            "latitude": "34.09957760",
            "longitude": "64.90595500"
        },
        {
            "id": 3873,
            "name": "Helmand",
            "country_id": 1,
            "country_code": "AF",
            "state_code": "HEL",
            "latitude": "39.29893610",
            "longitude": "-76.61604720"
        },
        {
            "id": 3887,
            "name": "Herat",
            "country_id": 1,
            "country_code": "AF",
            "state_code": "HER",
            "latitude": "34.35286500",
            "longitude": "62.20402870"
        },
        {
            "id": 3886,
            "name": "Jowzjan",
            "country_id": 1,
            "country_code": "AF",
            "state_code": "JOW",
            "latitude": "36.89696920",
            "longitude": "65.66585680"
        },
        {
            "id": 3902,
            "name": "Kabul",
            "country_id": 1,
            "country_code": "AF",
            "state_code": "KAB",
            "latitude": "34.55534940",
            "longitude": "69.20748600"
        }
    ]
}